[
  { "iata": "CPH", "name": "Copenhagen", "lat": 55.6181, "lon": 12.6561 },
  { "iata": "BLL", "name": "Billund", "lat": 55.7403, "lon": 9.1519 },
  { "iata": "AAL", "name": "Aalborg", "lat": 57.0928, "lon": 9.8492 },
  { "iata": "AAR", "name": "Aarhus", "lat": 56.2999, "lon": 10.619 },
  { "iata": "ODE", "name": "Odense", "lat": 55.4767, "lon": 10.331 },
  { "iata": "OSL", "name": "Oslo", "lat": 60.1976, "lon": 11.1004 },
  { "iata": "BGO", "name": "Bergen", "lat": 60.2934, "lon": 5.2181 },
  { "iata": "SVG", "name": "Stavanger", "lat": 58.8769, "lon": 5.6378 },
  { "iata": "TRD", "name": "Trondheim", "lat": 63.4578, "lon": 10.9239 },
  { "iata": "BOO", "name": "Bodø", "lat": 67.2692, "lon": 14.3653 },
  { "iata": "TOS", "name": "Tromsø", "lat": 69.6833, "lon": 18.9189 },
  { "iata": "AES", "name": "Ålesund", "lat": 62.5625, "lon": 6.1197 },
  { "iata": "KRS", "name": "Kristiansand", "lat": 58.2042, "lon": 8.0853 },
  { "iata": "HAU", "name": "Haugesund", "lat": 59.3453, "lon": 5.2086 },
  { "iata": "EVE", "name": "Harstad/Narvik", "lat": 68.4913, "lon": 16.6781 },
  { "iata": "LKN", "name": "Leknes", "lat": 68.1525, "lon": 13.6094 },
  { "iata": "KKN", "name": "Kirkenes", "lat": 69.7258, "lon": 29.8913 },
  { "iata": "MOL", "name": "Molde", "lat": 62.7447, "lon": 7.2625 },
  {
    "iata": "ARN",
    "name": "Stockholm Arlanda",
    "lat": 59.6519,
    "lon": 17.9186
  },
  { "iata": "GOT", "name": "Gothenburg", "lat": 57.6628, "lon": 12.2798 },
  { "iata": "MMX", "name": "Malmö", "lat": 55.5363, "lon": 13.3761 },
  { "iata": "LLA", "name": "Luleå", "lat": 65.5436, "lon": 22.1222 },
  { "iata": "UME", "name": "Umeå", "lat": 63.7919, "lon": 20.2828 },
  { "iata": "OSD", "name": "Östersund", "lat": 63.1944, "lon": 14.5003 },
  { "iata": "KRN", "name": "Kiruna", "lat": 67.822, "lon": 20.3367 },
  {
    "iata": "NYO",
    "name": "Stockholm Skavsta",
    "lat": 58.7886,
    "lon": 16.9122
  },
  { "iata": "SDL", "name": "Sundsvall", "lat": 62.5281, "lon": 17.4439 },
  { "iata": "SFT", "name": "Skellefteå", "lat": 64.6247, "lon": 21.0769 },
  { "iata": "KSD", "name": "Karlstad", "lat": 59.4447, "lon": 13.3372 },
  { "iata": "LPI", "name": "Linköping", "lat": 58.4062, "lon": 15.6806 },
  { "iata": "JKG", "name": "Jönköping", "lat": 57.7575, "lon": 14.0687 },
  { "iata": "VXO", "name": "Växjö", "lat": 56.9292, "lon": 14.7281 },
  { "iata": "HEL", "name": "Helsinki", "lat": 60.3172, "lon": 24.9633 },
  { "iata": "TMP", "name": "Tampere", "lat": 61.4142, "lon": 23.6044 },
  { "iata": "TKU", "name": "Turku", "lat": 60.5142, "lon": 22.2628 },
  { "iata": "OUL", "name": "Oulu", "lat": 64.93, "lon": 25.3544 },
  { "iata": "RVN", "name": "Rovaniemi", "lat": 66.5647, "lon": 25.8308 },
  { "iata": "KTT", "name": "Kittilä", "lat": 67.7008, "lon": 24.8467 },
  { "iata": "IVL", "name": "Ivalo", "lat": 68.6073, "lon": 27.4053 },
  { "iata": "KUO", "name": "Kuopio", "lat": 63.0071, "lon": 27.7978 },
  { "iata": "JOE", "name": "Joensuu", "lat": 62.6628, "lon": 29.6075 },
  { "iata": "VAA", "name": "Vaasa", "lat": 63.0508, "lon": 21.7622 },
  { "iata": "MHQ", "name": "Mariehamn", "lat": 60.1222, "lon": 19.8983 },
  { "iata": "TLL", "name": "Tallinn", "lat": 59.4133, "lon": 24.8328 },
  { "iata": "RIX", "name": "Riga", "lat": 56.9236, "lon": 23.9711 },
  { "iata": "VNO", "name": "Vilnius", "lat": 54.6341, "lon": 25.2858 },
  { "iata": "KUN", "name": "Kaunas", "lat": 54.9639, "lon": 24.0847 },
  { "iata": "PLQ", "name": "Palanga", "lat": 55.9733, "lon": 21.0939 },
  { "iata": "GDN", "name": "Gdańsk", "lat": 54.3776, "lon": 18.4662 }
]
